@OM Digital Solutions/+1000/+1000
$GPGGA,051256.0,3337.6191,S,15017.1780,E,1,,,1079.3,M,,M,,*4F
$GPRMC,051256.0,A,3337.6191,S,15017.1780,E,,,200725,,*1E
$GPGGA,051314.0,3337.6258,S,15017.1765,E,1,,,1079.3,M,,M,,*45
$GPRMC,051314.0,A,3337.6258,S,15017.1765,E,,,200725,,*14
$GPGGA,051344.0,3337.6223,S,15017.1837,E,1,,,1063.2,M,,M,,*4E
$GPRMC,051344.0,A,3337.6223,S,15017.1837,E,,,200725,,*15
$GPGGA,051414.0,3337.6255,S,15017.1780,E,1,,,1056.2,M,,M,,*48
$GPRMC,051414.0,A,3337.6255,S,15017.1780,E,,,200725,,*15
$GPGGA,051444.0,3337.6252,S,15017.1775,E,1,,,1056.8,M,,M,,*4A
$GPRMC,051444.0,A,3337.6252,S,15017.1775,E,,,200725,,*1D
$GPGGA,051514.0,3337.6266,S,15017.1802,E,1,,,1056.6,M,,M,,*48
$GPRMC,051514.0,A,3337.6266,S,15017.1802,E,,,200725,,*11
$GPGGA,051537.0,3337.6271,S,15017.1801,E,1,,,1055.7,M,,M,,*4E
$GPRMC,051537.0,A,3337.6271,S,15017.1801,E,,,200725,,*15
$GPGGA,051600.0,3337.6255,S,15017.1813,E,1,,,1074.9,M,,M,,*41
$GPRMC,051600.0,A,3337.6255,S,15017.1813,E,,,200725,,*17
$GPGGA,051608.0,3337.6265,S,15017.1829,E,1,,,1072.0,M,,M,,*4C
$GPRMC,051608.0,A,3337.6265,S,15017.1829,E,,,200725,,*15
$GPGGA,051638.0,3337.6266,S,15017.1817,E,1,,,1051.6,M,,M,,*46
$GPRMC,051638.0,A,3337.6266,S,15017.1817,E,,,200725,,*18
$GPGGA,051708.0,3337.6264,S,15017.1778,E,1,,,1050.0,M,,M,,*47
$GPRMC,051708.0,A,3337.6264,S,15017.1778,E,,,200725,,*1E
$GPGGA,051729.0,3337.6255,S,15017.1777,E,1,,,1050.6,M,,M,,*4F
$GPRMC,051729.0,A,3337.6255,S,15017.1777,E,,,200725,,*10
$GPGGA,051752.0,3337.6241,S,15017.1806,E,1,,,1049.7,M,,M,,*46
$GPRMC,051752.0,A,3337.6241,S,15017.1806,E,,,200725,,*10
$GPGGA,051822.0,3337.6247,S,15017.1798,E,1,,,1049.5,M,,M,,*42
$GPRMC,051822.0,A,3337.6247,S,15017.1798,E,,,200725,,*16
$GPGGA,051852.0,3337.6243,S,15017.1803,E,1,,,1056.4,M,,M,,*43
$GPRMC,051852.0,A,3337.6243,S,15017.1803,E,,,200725,,*18
$GPGGA,051922.0,3337.6210,S,15017.1852,E,1,,,1061.1,M,,M,,*46
$GPRMC,051922.0,A,3337.6210,S,15017.1852,E,,,200725,,*1C
$GPGGA,051952.0,3337.6207,S,15017.1827,E,1,,,1053.8,M,,M,,*4D
$GPRMC,051952.0,A,3337.6207,S,15017.1827,E,,,200725,,*1F
$GPGGA,052022.0,3337.6230,S,15017.1799,E,1,,,1056.4,M,,M,,*47
$GPRMC,052022.0,A,3337.6230,S,15017.1799,E,,,200725,,*1C
$GPGGA,052052.0,3337.6245,S,15017.1787,E,1,,,1056.5,M,,M,,*4C
$GPRMC,052052.0,A,3337.6245,S,15017.1787,E,,,200725,,*16
$GPGGA,052122.0,3337.6193,S,15017.1856,E,1,,,1052.6,M,,M,,*46
$GPRMC,052122.0,A,3337.6193,S,15017.1856,E,,,200725,,*1B
$GPGGA,052152.0,3337.6181,S,15017.1847,E,1,,,1055.9,M,,M,,*4A
$GPRMC,052152.0,A,3337.6181,S,15017.1847,E,,,200725,,*1F
$GPGGA,052222.0,3337.6174,S,15017.1850,E,1,,,1056.6,M,,M,,*4E
$GPRMC,052222.0,A,3337.6174,S,15017.1850,E,,,200725,,*17
$GPGGA,052252.0,3337.6168,S,15017.1858,E,1,,,1057.6,M,,M,,*4D
$GPRMC,052252.0,A,3337.6168,S,15017.1858,E,,,200725,,*15
$GPGGA,052322.0,3337.6172,S,15017.1889,E,1,,,1057.5,M,,M,,*4F
$GPRMC,052322.0,A,3337.6172,S,15017.1889,E,,,200725,,*14
$GPGGA,052352.0,3337.6148,S,15017.1919,E,1,,,1055.7,M,,M,,*49
$GPRMC,052352.0,A,3337.6148,S,15017.1919,E,,,200725,,*12
$GPGGA,052422.0,3337.6135,S,15017.1914,E,1,,,1050.4,M,,M,,*48
$GPRMC,052422.0,A,3337.6135,S,15017.1914,E,,,200725,,*15
$GPGGA,052452.0,3337.6143,S,15017.1921,E,1,,,1052.5,M,,M,,*4B
$GPRMC,052452.0,A,3337.6143,S,15017.1921,E,,,200725,,*15
$GPGGA,052522.0,3337.6094,S,15017.1883,E,1,,,1050.5,M,,M,,*4D
$GPRMC,052522.0,A,3337.6094,S,15017.1883,E,,,200725,,*11
$GPGGA,052552.0,3337.6112,S,15017.1912,E,1,,,1054.7,M,,M,,*4A
$GPRMC,052552.0,A,3337.6112,S,15017.1912,E,,,200725,,*10
$GPGGA,052622.0,3337.6081,S,15017.1939,E,1,,,1058.0,M,,M,,*47
$GPRMC,052622.0,A,3337.6081,S,15017.1939,E,,,200725,,*16
$GPGGA,052652.0,3337.6100,S,15017.1949,E,1,,,1056.5,M,,M,,*44
$GPRMC,052652.0,A,3337.6100,S,15017.1949,E,,,200725,,*1E
$GPGGA,052722.0,3337.6111,S,15017.1948,E,1,,,1056.6,M,,M,,*40
$GPRMC,052722.0,A,3337.6111,S,15017.1948,E,,,200725,,*19
$GPGGA,052752.0,3337.6045,S,15017.1941,E,1,,,1056.6,M,,M,,*4E
$GPRMC,052752.0,A,3337.6045,S,15017.1941,E,,,200725,,*17
$GPGGA,052822.0,3337.6056,S,15017.1943,E,1,,,1052.3,M,,M,,*47
$GPRMC,052822.0,A,3337.6056,S,15017.1943,E,,,200725,,*1F
$GPGGA,052852.0,3337.6053,S,15017.1944,E,1,,,1053.8,M,,M,,*48
$GPRMC,052852.0,A,3337.6053,S,15017.1944,E,,,200725,,*1A
$GPGGA,052922.0,3337.6106,S,15017.1910,E,1,,,1050.4,M,,M,,*41
$GPRMC,052922.0,A,3337.6106,S,15017.1910,E,,,200725,,*1C
$GPGGA,052952.0,3337.6132,S,15017.1894,E,1,,,1051.9,M,,M,,*40
$GPRMC,052952.0,A,3337.6132,S,15017.1894,E,,,200725,,*11
$GPGGA,053022.0,3337.6121,S,15017.1898,E,1,,,1051.7,M,,M,,*4F
$GPRMC,053022.0,A,3337.6121,S,15017.1898,E,,,200725,,*10
$GPGGA,053052.0,3337.6147,S,15017.1858,E,1,,,1051.2,M,,M,,*41
$GPRMC,053052.0,A,3337.6147,S,15017.1858,E,,,200725,,*1B
$GPGGA,053122.0,3337.6148,S,15017.1858,E,1,,,1051.6,M,,M,,*4C
$GPRMC,053122.0,A,3337.6148,S,15017.1858,E,,,200725,,*12
$GPGGA,053152.0,3337.6116,S,15017.1904,E,1,,,1054.4,M,,M,,*4F
$GPRMC,053152.0,A,3337.6116,S,15017.1904,E,,,200725,,*16
$GPGGA,053222.0,3337.6133,S,15017.1825,E,1,,,1054.7,M,,M,,*4D
$GPRMC,053222.0,A,3337.6133,S,15017.1825,E,,,200725,,*17
$GPGGA,053252.0,3337.6138,S,15017.1831,E,1,,,1050.7,M,,M,,*40
$GPRMC,053252.0,A,3337.6138,S,15017.1831,E,,,200725,,*1E
$GPGGA,053322.0,3337.6151,S,15017.1837,E,1,,,1050.7,M,,M,,*4F
$GPRMC,053322.0,A,3337.6151,S,15017.1837,E,,,200725,,*11
$GPGGA,053352.0,3337.6191,S,15017.1736,E,1,,,1052.6,M,,M,,*49
$GPRMC,053352.0,A,3337.6191,S,15017.1736,E,,,200725,,*14
$GPGGA,053422.0,3337.6197,S,15017.1721,E,1,,,1052.4,M,,M,,*4B
$GPRMC,053422.0,A,3337.6197,S,15017.1721,E,,,200725,,*14
$GPGGA,053452.0,3337.6179,S,15017.1721,E,1,,,1050.7,M,,M,,*4D
$GPRMC,053452.0,A,3337.6179,S,15017.1721,E,,,200725,,*13
$GPGGA,053522.0,3337.6160,S,15017.1683,E,1,,,1051.9,M,,M,,*45
$GPRMC,053522.0,A,3337.6160,S,15017.1683,E,,,200725,,*14
$GPGGA,053552.0,3337.6170,S,15017.1704,E,1,,,1057.1,M,,M,,*43
$GPRMC,053552.0,A,3337.6170,S,15017.1704,E,,,200725,,*1C
$GPGGA,053622.0,3337.6161,S,15017.1754,E,1,,,1055.2,M,,M,,*43
$GPRMC,053622.0,A,3337.6161,S,15017.1754,E,,,200725,,*1D
$GPGGA,053652.0,3337.6176,S,15017.1758,E,1,,,1057.1,M,,M,,*4F
$GPRMC,053652.0,A,3337.6176,S,15017.1758,E,,,200725,,*10
$GPGGA,053722.0,3337.6170,S,15017.1768,E,1,,,1057.1,M,,M,,*4C
$GPRMC,053722.0,A,3337.6170,S,15017.1768,E,,,200725,,*13
$GPGGA,053752.0,3337.6158,S,15017.1764,E,1,,,1055.5,M,,M,,*4B
$GPRMC,053752.0,A,3337.6158,S,15017.1764,E,,,200725,,*12
$GPGGA,053822.0,3337.6161,S,15017.1834,E,1,,,1057.2,M,,M,,*46
$GPRMC,053822.0,A,3337.6161,S,15017.1834,E,,,200725,,*1A
$GPGGA,053852.0,3337.6161,S,15017.1860,E,1,,,1055.7,M,,M,,*47
$GPRMC,053852.0,A,3337.6161,S,15017.1860,E,,,200725,,*1C
$GPGGA,053922.0,3337.6156,S,15017.1856,E,1,,,1060.2,M,,M,,*43
$GPRMC,053922.0,A,3337.6156,S,15017.1856,E,,,200725,,*1B
$GPGGA,053952.0,3337.6098,S,15017.1900,E,1,,,1047.3,M,,M,,*41
$GPRMC,053952.0,A,3337.6098,S,15017.1900,E,,,200725,,*1D
$GPGGA,054022.0,3337.6099,S,15017.1884,E,1,,,1049.4,M,,M,,*4D
$GPRMC,054022.0,A,3337.6099,S,15017.1884,E,,,200725,,*18
$GPGGA,054052.0,3337.6024,S,15017.1961,E,1,,,1054.9,M,,M,,*47
$GPRMC,054052.0,A,3337.6024,S,15017.1961,E,,,200725,,*13
$GPGGA,054122.0,3337.6019,S,15017.1946,E,1,,,1060.0,M,,M,,*44
$GPRMC,054122.0,A,3337.6019,S,15017.1946,E,,,200725,,*1E
$GPGGA,054152.0,3337.6031,S,15017.1931,E,1,,,1062.9,M,,M,,*42
$GPRMC,054152.0,A,3337.6031,S,15017.1931,E,,,200725,,*13
$GPGGA,054222.0,3337.6032,S,15017.1947,E,1,,,1061.0,M,,M,,*4E
$GPRMC,054222.0,A,3337.6032,S,15017.1947,E,,,200725,,*15
$GPGGA,054252.0,3337.6041,S,15017.1956,E,1,,,1062.5,M,,M,,*4B
$GPRMC,054252.0,A,3337.6041,S,15017.1956,E,,,200725,,*16
$GPGGA,054322.0,3337.6072,S,15017.1842,E,1,,,1054.6,M,,M,,*4F
$GPRMC,054322.0,A,3337.6072,S,15017.1842,E,,,200725,,*14
$GPGGA,054352.0,3337.6059,S,15017.1857,E,1,,,1053.6,M,,M,,*42
$GPRMC,054352.0,A,3337.6059,S,15017.1857,E,,,200725,,*1E
$GPGGA,054422.0,3337.6040,S,15017.1839,E,1,,,1050.0,M,,M,,*47
$GPRMC,054422.0,A,3337.6040,S,15017.1839,E,,,200725,,*1E
$GPGGA,054452.0,3337.6087,S,15017.1843,E,1,,,1051.1,M,,M,,*46
$GPRMC,054452.0,A,3337.6087,S,15017.1843,E,,,200725,,*1F
$GPGGA,054522.0,3337.6082,S,15017.1830,E,1,,,1050.2,M,,M,,*43
$GPRMC,054522.0,A,3337.6082,S,15017.1830,E,,,200725,,*18
$GPGGA,054552.0,3337.6080,S,15017.1828,E,1,,,1048.3,M,,M,,*47
$GPRMC,054552.0,A,3337.6080,S,15017.1828,E,,,200725,,*14
$GPGGA,054622.0,3337.6063,S,15017.1832,E,1,,,1050.7,M,,M,,*48
$GPRMC,054622.0,A,3337.6063,S,15017.1832,E,,,200725,,*16
$GPGGA,054652.0,3337.6047,S,15017.1819,E,1,,,1050.9,M,,M,,*4E
$GPRMC,054652.0,A,3337.6047,S,15017.1819,E,,,200725,,*1E
$GPGGA,054722.0,3337.6098,S,15017.1768,E,1,,,1054.9,M,,M,,*47
$GPRMC,054722.0,A,3337.6098,S,15017.1768,E,,,200725,,*13
$GPGGA,054752.0,3337.6103,S,15017.1775,E,1,,,1058.2,M,,M,,*48
$GPRMC,054752.0,A,3337.6103,S,15017.1775,E,,,200725,,*1B
$GPGGA,054822.0,3337.6117,S,15017.1762,E,1,,,1058.8,M,,M,,*49
$GPRMC,054822.0,A,3337.6117,S,15017.1762,E,,,200725,,*10
$GPGGA,054852.0,3337.6095,S,15017.1737,E,1,,,1057.1,M,,M,,*43
$GPRMC,054852.0,A,3337.6095,S,15017.1737,E,,,200725,,*1C
$GPGGA,054922.0,3337.6092,S,15017.1735,E,1,,,1058.7,M,,M,,*49
$GPRMC,054922.0,A,3337.6092,S,15017.1735,E,,,200725,,*1F
$GPGGA,054952.0,3337.6127,S,15017.1703,E,1,,,1055.8,M,,M,,*46
$GPRMC,054952.0,A,3337.6127,S,15017.1703,E,,,200725,,*12
$GPGGA,055022.0,3337.6135,S,15017.1708,E,1,,,1060.5,M,,M,,*4A
$GPRMC,055022.0,A,3337.6135,S,15017.1708,E,,,200725,,*15
$GPGGA,055052.0,3337.6239,S,15017.1758,E,1,,,1064.6,M,,M,,*40
$GPRMC,055052.0,A,3337.6239,S,15017.1758,E,,,200725,,*18
